[
  {
    "city": "Минск",
    "stores": [
      {
        "name": "Магазин «Белорусский лён»",
        "address": "220030, пр. Независимости, 3-2, средний уровень, помещение 312.2, (в ТЦ «Столица»)",
        "phone": "+375 (17) 327 13 05",
        "hours": "с 10:00 до 22:00"
      },
      {
        "name": "Специализированный магазин № 12 «Белорусский лен»",
        "address": "ул. Притыцкого, 29, ТЦ «Тивали» 1 этаж",
        "phone": "+375 (17) 236-14-28",
        "hours": "10:00 — 21:00"
      },
      {
        "name": "Магазин № 2 «Белорусский лён»",
        "address": "220114, пр.Независимости, 134, ТЦ «Першы нацыянальны гандлевы дом»",
        "phone": "+375 (29)-210-06-64",
        "hours": "Пн. — вс.: 10.00 — 22.00"
      },
      {
        "name": "Магазин № 6 «Белорусский лён»",
        "address": "220114, ул. Петра Мстиславца, 11, ТРЦ «Dana Mall», пом. 81",
        "phone": "+375 (17) 236-13-12",
        "hours": "Пн. — вс.: 10.00 — 22.00"
      },
      {
        "name": "Магазин № 9 «Белорусский лён»",
        "address": "220116, пр-т Дзержинского, 104-110, ТЦ «Титан», 1-й этаж, пом. 101",
        "phone": "+375 (17) 236-14-94",
        "hours": "Пн. — вс.: 10.00 — 21.00"
      },
      {
        "name": "Магазин № 10 «Белорусский лён»",
        "address": "220017, ул. Притыцкого, 156, пом. 32, ТЦ «GREEN City»",
        "phone": "+375(17)350-31-01",
        "hours": "Пн. — вс.: 10.00 — 22.00"
      },
      {
        "name": "Специализированный магазин № 16 «Белорусский лен»",
        "address": "ул. Романовская Слобода, 1-21",
        "phone": "+375 (17) 350-01-30",
        "hours": "Пн. — вс.: 10.00 — 20.00"
      },
      {
        "name": "неспециализированный магазин «ДА ДОМУ»",
        "address": "220114, г.Минск, ул. Петра Мстиславца, 11, ТРЦ «Dana Mall», 3 этаж",
        "phone": "+375 (17) 350 01 31",
        "hours": "с 10:00 до 22:00"
      },
      {
        "name": "неспециализированный магазин №2 «ДА ДОМУ»",
        "address": "220030, г.Минск, пр.Независимости, 3-2, средний уровень, пом. 315, ТЦ «Столица»",
        "phone": "+375 (17) 236 13 62",
        "hours": "с 10:00 до 22:00"
      },
      {
        "name": "неспециализированный магазин №3 «ДА ДОМУ»",
        "address": "220030, 220114 г.Минск, пр.Независимости, 134, ТЦ «Першы нацыянальны гандлевы дом»",
        "phone": "+375 (17) 236 14 10",
        "hours": "с 10:00 до 22:00"
      }
    ]
  },
  {
    "city": "Барановичи",
    "stores": [
      {
        "name": "Специализированный магазин № 19 «Белорусский лён»",
        "address": "г. Барановичи, проспект Советский, 35, пом. 79",
        "phone": "8 (0163) 63 02 85",
        "hours": "пн-сб с 10:00 до 20:00, вс с 10:00 до 18:00"
      },
      {
        "name": "Специализированный магазин № 24 «Белорусский лён»",
        "address": "225409 г.Барановичи, ул.Ленина, 2",
        "phone": "8 (0163) 46 26 96",
        "hours": "пн-пт с 10:00 до 19:00, сб-вс с 10:00 до 18:00"
      }
    ]
  },
  {
    "city": "Бобруйск",
    "stores": [
      {
        "name": "Специализированный магазин № 17 «Белорусский лён»",
        "address": "г. Бобруйск , ул. Советская. 74",
        "phone": "+375-225-73-07-16",
        "hours": "пн-суб. с 10:00 до 19:00, вс с 10:00 до 17:00"
      }
    ]
  },
  {
    "city": "Борисов",
    "stores": [
      {
        "name": "Специализированный магазин № 30 «Белорусский лён»",
        "address": "г. Борисов , пр. Революции, 24",
        "phone": "8-0177-78-93-39",
        "hours": "пн-пт. с 10:00 до 19:00, сб-вс с 10:00 до 17:00"
      }
    ]
  },
  {
    "city": "Боровляны",
    "stores": [
      {
        "name": "Специализированный магазин № 29 «Белорусский лён»",
        "address": "д. Боровляны , ул. Березовая Роща, 108, ТЦ «Перекресток», 2 этаж",
        "phone": "8-0175-14-00-55",
        "hours": "пн-пт. с 10:00 до 20:00, сб-вс с 10:00 до 18:00"
      }
    ]
  },
  {
    "city": "Брест",
    "stores": [
      {
        "name": "Магазин № 3 «Белорусский лён»",
        "address": "г. Брест, ул. Мицкевича, 11",
        "phone": "+375 (162) 51-86-86",
        "hours": "Пн. – пт.: 10.00 – 20.00, сб. 10:00 — 18:00, вс. 10:00 — 17:00"
      },
      {
        "name": "Специализированный Магазин № 18 «Белорусский лён»",
        "address": "г.Брест, ул. Советская, 66а",
        "phone": "+375 (162) 53-38-32",
        "hours": "Пн. – Сб.: 10.00 – 20.00, вс. 10:00 — 18:00"
      },
      {
        "name": "Специализированный Магазин № 34 «Белорусский лён»",
        "address": "г. Брест, ул. Я. Купалы, 3",
        "phone": "+375 (162) 59 10 30",
        "hours": "Пн. – Пт.: 10.00 – 20.00, Сб.- Вс. 10:00 — 18:00"
      }
    ]
  },
  {
    "city": "Лида",
    "stores": [
      {
        "name": "Специализированный магазин № 3 «Поле кветак»",
        "address": "г. Лида, ул.Качана, 29",
        "phone": "8 0154 62 08 07",
        "hours": "пн-вс 10.00 — 21.00"
      }
    ]
  },
  {
    "city": "Солигорск",
    "stores": [
      {
        "name": "Специализированный магазин № 7 «Поле кветак»",
        "address": "г. Солигорск, бульвар Шахтеров, 5а-2",
        "phone": "",
        "hours": "пн-вс 10.00 — 19.00"
      }
    ]
  },
  {
    "city": "Витебск",
    "stores": [
      {
        "name": "Магазин «Витебский лён»",
        "address": "220015, пр-т Московский, 8",
        "phone": "(80212) 22 89 94",
        "hours": "Пн. — пт.: 10.00 — 19.00; сб. вс.: 10.00 — 18.00"
      },
      {
        "name": "Магазин № 2 «Витебский лён»",
        "address": "220001, ул. Кирова, 6/11",
        "phone": "(80212) 67-21-40",
        "hours": "Пн. — пт.: 10.00 — 19.00; сб., вс.: 10.00 — 18.00"
      },
      {
        "name": "неспециализированный магазин №4 «ДА ДОМУ»",
        "address": "г. Витебск, ул.Ленина, 3",
        "phone": "(80212) 24 72 70",
        "hours": "Пн. — пт.: 10.00 — 19.00; сб., вс.: 10.00 — 18.00"
      }
    ]
  },
  {
    "city": "Кобрин",
    "stores": [
      {
        "name": "Специализированный магазин № 5 «Поле кветак»",
        "address": "г. Кобрин, ул.Октябрьская, 7",
        "phone": "8 01642 4 57 33",
        "hours": "пн-пт 9.00 — 19.00, сб-вс 9.00 — 18.00"
      }
    ]
  },
  {
    "city": "Слуцк",
    "stores": [
      {
        "name": "Специализированный магазин № 6 «Поле кветак»",
        "address": "г. Слуцк, ул.Парижской Коммуны, 2-1",
        "phone": "8 01795 6 79",
        "hours": "пн-вс 10.00-20.00"
      }
    ]
  },
  {
    "city": "Гомель",
    "stores": [
      {
        "name": "Специализированный магазин №13 «Белорусский лен»",
        "address": "246017 ул.Гагарина 65, ТЦ «Секрет» 2-й этаж",
        "phone": "+375 (33)-329-09-10, +375 (232) 23-55-37",
        "hours": "Пн. — вс.: 10.00 — 21.00"
      },
      {
        "name": "Специализированный магазин № 15 «Белорусский лен»",
        "address": "пр. Речицкий, 5В, 2 этаж, помещение № 140в в ТЦ «Мандарин Плаза»",
        "phone": "+375 (232) 51 53 51",
        "hours": "понед. — воскр. с 10:00 до 21:00"
      },
      {
        "name": "Специализированный магазин № 25 «Белорусский лен»",
        "address": "г. Гомель, пр. Ленина, 16",
        "phone": "+375 (232) 34 05 37",
        "hours": "понед. — воскр. с 10:00 до 20:00"
      },
      {
        "name": "Неспециализированный магазин № 7 «ДА ДОМУ»",
        "address": "г. Гомель пр. Победы д.18",
        "phone": "8 0232 31 758 37",
        "hours": "пн-вс 9.00 — 20.00"
      }
    ]
  },
  {
    "city": "Калинковичи",
    "stores": [
      {
        "name": "Специализированный магазин № 4 «Поле кветак»",
        "address": "г. Калинковичи, ул.Фрунзе, 7-2",
        "phone": "8 02345 2 43 28",
        "hours": "пн-пт 9.00 — 19.00, сб-вс 9.00 — 18.00"
      }
    ]
  },
  {
    "city": "Гродно",
    "stores": [
      {
        "name": "Магазин № 5 «Белорусский лён»",
        "address": "230005, ул. М. Горького, 91, ОАО «Гронитекс», 2-й этаж",
        "phone": "(80152) 68-28-02, 68-28-03",
        "hours": "Пн. — пт.: 10.00 — 19.00; сб.: 10.00 — 17.00; вс.: 10.00 — 16.00"
      },
      {
        "name": "Специализированный Магазин № 11 «Белорусский лён»",
        "address": "ул. Замковая,18",
        "phone": "(8 0152) 680729",
        "hours": "Пн. — сб.: 10.00 — 19.00; вс.: 10.00 — 18.00"
      },
      {
        "name": "Специализированный магазин № 8 «Белорусский лён»",
        "address": "Проспект Янки Купалы, 87, ТЦ «Тринити», 3-й этаж",
        "phone": "(80152) 67-12-99",
        "hours": "Пн. — вс.: 10.00 — 22.00; без обеда"
      },
      {
        "name": "Специализированный магазин № 26 «Белорусский лён»",
        "address": "ул Советская, 18",
        "phone": "(80152) 62-31-76",
        "hours": "Пн. — суб.: 10.00 — 20.00; Вс.: 10.00 — 19.00"
      }
    ]
  },
  {
    "city": "Жлобин",
    "stores": [
      {
        "name": "Специализированный магазин № 20 «Белорусский лён»",
        "address": "г. Жлобин, ул. Барташова, 21",
        "phone": "8 (02334) 9 30 80",
        "hours": "пн-пц с 10:00 до 19:00, суб. с 10:00 до 17:00, вс. с 10:00 до 16:00"
      }
    ]
  },
  {
    "city": "Могилёв",
    "stores": [
      {
        "name": "Магазин № 4 «Белорусский лён»",
        "address": "212022, Ул. Первомайская, 57, ТЦ «АТРИУМ» 1 этаж",
        "phone": "(80222) 73-35-44",
        "hours": "Пн. — вс.: 10.00 — 21.00"
      },
      {
        "name": "Магазин № 7 «Белорусский лён»",
        "address": "212029, ул. Островского, 5, ТЦ «Планета Green», 2-й этаж",
        "phone": "(80222) 42-69-90",
        "hours": "Пн. — вс.: 10.00 — 21.00"
      },
      {
        "name": "Магазин № 27 «Белорусский лён»",
        "address": "ул. Крыленко, 7",
        "phone": "(80222) 78-50-80",
        "hours": "Пн. — пт.: 10.00 — 19.00, суб. — вос.: 10.00 — 18.00"
      },
      {
        "name": "Магазин № 6 «Да Дому»",
        "address": "ул.Гагарина, 79. ТЦ «Е-Сити»",
        "phone": "8 022 42 70 52",
        "hours": "Пн. — вс.: 10.00 — 21.00"
      }
    ]
  },
  {
    "city": "Мозырь",
    "stores": [
      {
        "name": "Специализированный магазин № 21 «Белорусский лён»",
        "address": "г.Мозырь, ул. Советская, 138",
        "phone": "8 (0236) 22 09 50",
        "hours": "пн-пц с 10:00 до 19:00, суб. — вс. с 10:00 до 18:00"
      }
    ]
  },
  {
    "city": "Молодечно",
    "stores": [
      {
        "name": "Специализированный магазин № 31 «Белорусский лён»",
        "address": "г. Молодечно , ул. В.Гостинец, 143, ТЦ «Тройка», 2 этаж",
        "phone": "8-0176-52-88-78",
        "hours": "пн-пт. с 10:00 до 19:00, сб-вс с 10:00 до 17:00"
      }
    ]
  },
  {
    "city": "Несвиж",
    "stores": [
      {
        "name": "Специализированный магазин № 22 «Белорусский лён»",
        "address": "г.Несвиж, ул. Советская, 19",
        "phone": "8 (01770) 2 15 07",
        "hours": "пн-пц с 9:00 до 18:00, суб. — вс. с 9:00 до 17:00"
      }
    ]
  },
  {
    "city": "Новополоцк",
    "stores": [
      {
        "name": "Неспециализированный магазин № 5 «ДА ДОМУ»",
        "address": "г. Новополоцк , ул.Молодежная, 148",
        "phone": "8-0214-75-92-25",
        "hours": "пн-пт. с 10:00 до 19:00, сб-вс с 10:00 до 18:00"
      }
    ]
  },
  {
    "city": "Орша",
    "stores": [
      {
        "name": "Магазин № 1 «Белорусский лён»",
        "address": "211382, г.Орша ул.Советская, 29б-91",
        "phone": "(80216) 50-83-05, 50-83-03",
        "hours": "Пн. — пт.: 10.00 — 19.00; сб.: 10.00 — 18.00; вс.: 10.00 — 16.00"
      }
    ]
  },
  {
    "city": "Пинск",
    "stores": [
      {
        "name": "Специализированный магазин № 14 «Белорусский лён»",
        "address": "225716, г.Пинск, ул. Ленина, 11",
        "phone": "8 (0165) 61 17 95",
        "hours": "пн-пц с 10:00 до 19:00, суб-вс с 10:00 до 17:00"
      }
    ]
  },
  {
    "city": "Полоцк",
    "stores": [
      {
        "name": "Специализированный магазин № 21 «Белорусский лён»",
        "address": "г. Полоцк, Вильнюсское шоссе, 1, ТЦ «Манеж»",
        "phone": "8 (0214) 77 32 03",
        "hours": "пн-вс. с 10:00 до 21:00"
      }
    ]
  },
  {
    "city": "Речица",
    "stores": [
      {
        "name": "Специализированный магазин № 23 «Белорусский лён»",
        "address": "г. Речица, ул. Советская, 204",
        "phone": "8 (02340) 3 00 57",
        "hours": "пн-пц с 10:00 до 19:00, суб. с 10:00 до 18:00, вс. с 10:00 до 16:00"
      }
    ]
  },
  {
    "city": "Слоним",
    "stores": [
      {
        "name": "Специализированный магазин № 33 «Белорусский лён»",
        "address": "г. Слоним, ул. Красноармейская, 20",
        "phone": "8-0156-22-54-83",
        "hours": "пн-пт. с 10:00 до 19:00, сб-вс с 10:00 до 16:00"
      }
    ]
  },
  {
    "city": "Светлогорск",
    "stores": [
      {
        "name": "Специализированный магазин № 1 «Поле кветак»",
        "address": "г. Светлогорск, м-н Первомайский д.12Б",
        "phone": "8 (0234) 29 05 98",
        "hours": "пн-пт. с 10:00 до 19:00, сб-вс с 10:00 до 18:00"
      }
    ]
  },
  {
    "city": "Волковыск",
    "stores": [
      {
        "name": "Специализированный магазин № 2 «Поле кветак»",
        "address": "г. Волковыск, ул.Ленина д.16",
        "phone": "8 (0151) 23 17 90",
        "hours": "пн-пт. с 10:00 до 19:00, сб-вс с 10:00 до 18:00"
      }
    ]
  }
]
